timestamp,distance,expected_pitch,marker_id,pitch_degree,camera_x,camera_y,camera_z,front_x,front_y,front_z
1744009209.6647089,6,0,28,0.4225886311747428,-0.07246678226068422,0.5723392588420136,6.447086668875219,-0.07169693289040231,0.5545277748770175,6.2981499092390845
1744009210.02673,6,0,28,0.625868195492061,-0.09738637028855006,0.47978644972097156,6.456277742157584,-0.0960438321798255,0.46411619116351477,6.307104552246766
1744009210.095173,6,0,28,0.7640452897552836,-0.10872683490889386,0.6715489906250333,6.4320619890653985,-0.1071176784061419,0.6514417182439622,6.283424482988557
1744009210.2599204,6,0,28,1.1449158822358418,-0.1534578250028685,0.5834979303764237,6.443908238609308,-0.150817534944787,0.5654338702157536,6.29502332131101
1744009210.4564602,6,0,28,0.9694184687246079,-0.13202271664785525,0.6762387105013447,6.429048850509386,-0.1298756092754992,0.6560162094164487,6.280433775971831
1744009210.6664271,6,0,28,1.3699798487166488,-0.17778665928745888,0.6376362578105466,6.428737430309766,-0.17457682886449155,0.6183041509456171,6.280023050935011
1744009210.857809,6,0,28,1.715593268960233,-0.21743057168649413,0.6053483293216126,6.436540598917702,-0.21330698834609313,0.5867665911083343,6.287753116025464
1744009211.0550065,6,0,28,0.32672619246310486,-0.062234126447145564,0.5540747139761775,6.4498832936855415,-0.06169662451525067,0.5366859649456708,6.30089556768495
1744009211.2491937,6,0,28,0.35118814233871515,-0.06246574280015965,0.6367182791037105,6.438457547156801,-0.06192732003867875,0.6174178921791424,6.289705386952346
1744009211.4724119,6,0,28,1.2334747467069669,-0.16297847251962733,0.6358164032624981,6.431685171388184,-0.16011054586577197,0.6165242565419898,6.2829586166925875
1744009211.6530924,6,0,28,0.9534445419597593,-0.12886910980337418,0.7474541776483545,6.417431485169656,-0.12678491940880598,0.7255716614045276,6.269050854246217
1744009211.86403,6,0,28,2.463314337613701,-0.3045356282562949,0.4852014853438777,6.440851156255846,-0.29838899110544514,0.46939520918522804,6.291812971599255
1744009212.0561824,6,0,28,1.3869683344353125,-0.18143733398845338,0.6037757280427081,6.4455602592845995,-0.1781513700095615,0.5852492214167553,6.296745034952652
1744009212.2617679,6,0,28,0.6978888479702278,-0.10501036114582081,0.4722128236510311,6.457369888765759,-0.10349180571419576,0.45671915852725437,6.308179941616384
1744009212.4730647,6,0,28,1.733665386467015,-0.22325752085545794,0.455822515269324,6.452529094047192,-0.21899926555060148,0.44070261394427324,6.303353841925135
1744009212.664566,6,0,28,1.0814698793523707,-0.14649812284264022,0.596292300713383,6.434600391822249,-0.14401275753588616,0.5779151988891401,6.285751122130277
1744009212.8799994,6,0,28,1.7689149676285878,-0.22239061485851777,0.6511605620826344,6.42672957181018,-0.21815285404679885,0.6315156886741209,6.278081933645067
1744009213.06476,6,0,28,1.7086803071791863,-0.21655519702926268,0.6363986314216042,6.43280801696016,-0.21245119502878254,0.6170997896693283,6.284111305918521
1744009213.2579896,6,0,28,1.7799648173044365,-0.22561593617436365,0.579803028191973,6.43763604028053,-0.22129902891919623,0.5618112834811733,6.288781542753544
1744009213.4559538,6,0,28,1.1639435840680066,-0.15347035107415974,0.7068629915379516,6.422327237519642,-0.15082307284489282,0.6859272109088352,6.273819039067751
1744009213.6544895,6,0,28,0.6349157385069437,-0.09661345957013831,0.557450143664662,6.448669112199534,-0.09528672817917302,0.5399852160898436,6.299695234997446
1744009213.8734658,6,0,28,0.3938562675733168,-0.06701520875913122,0.6817764202887844,6.427235203151473,-0.06637091367980644,0.661419770196998,6.278624329791239
1744009214.0751522,6,0,28,1.7862227736436,-0.22699501184303397,0.5274388753438194,6.443100452984843,-0.22265029648370965,0.5106626626286975,6.294104875414958
1744009214.2595603,6,0,28,1.2158360641649,-0.16261933825264122,0.5620368338263724,6.4455353782729965,-0.15976068711715083,0.5444599945528485,6.296596186537449
1744009214.4592166,6,0,28,0.27081313889707637,-0.05468432993249168,0.5770532719994951,6.443820123494421,-0.05433064953372863,0.5591290990987866,6.294895313821884
1744009214.6652353,6,0,28,0.30385777167789474,-0.055700098054551915,0.7195981452502032,6.4246177455216955,-0.05531946178439359,0.6983687411009634,6.276128124620105
1744009214.8547041,6,0,28,1.4623686469035715,-0.18967635720522966,0.5920765788398924,6.438663042793002,-0.18619090043696976,0.5738006043251022,6.289821380793912
1744009214.8670998,6,0,17,32.235433102180714,-0.01958538456295789,-11.20845174717547,1.2189731021859014,-0.09809997287217123,-11.081588162850355,1.2034460163414993
1744009215.0560827,6,0,28,1.2517745260473365,-0.16621191732106702,0.5330927862702303,6.440803562169996,-0.16327152939543246,0.5161796843622272,6.291789129638458
1744009215.264346,6,0,28,0.1582353292799054,-0.04481804711487246,0.4548186407447171,6.458775847118511,-0.04469067999774683,0.4397233573303467,6.309537392971272
1744009215.4511168,6,0,28,1.3972034937023152,-0.1809338033601944,0.6969255132320258,6.419830896823889,-0.17764602925796205,0.6762088544234658,6.271304769192208
1744009215.644609,6,0,28,1.130691327806433,-0.15097537671075312,0.6176779067989432,6.438212487973487,-0.14839186765694767,0.5988153947135013,6.28942562323471
1744009215.846288,6,0,28,1.5162082970184032,-0.19473425112680445,0.595452983537854,6.4364828751762255,-0.19113800673064993,0.5771006584567937,6.287653243750349
1744009216.0441475,6,0,28,1.533938799587751,-0.19702386718341636,0.5963782414008122,6.435407289086748,-0.19337112043584367,0.577996524598655,6.286582660988428
1744009216.2580035,6,0,28,1.044639861397175,-0.1436815920831412,0.4994571591809763,6.4513551190508815,-0.14126855240832667,0.4833314125472901,6.302243960732552
1744009216.458796,6,0,28,0.7508462757831362,-0.11175933084517171,0.45672859558632184,6.456234900474843,-0.11008214110798775,0.44158786340542466,6.30701042103661
1744009216.6616995,6,0,28,0.34480723481658215,-0.06021973519917072,0.7170950882528395,6.426593232596655,-0.059733788752473364,0.6959298349622413,6.278094761529793
1744009216.862307,6,0,28,0.6869391418669537,-0.09975231636971511,0.6994179213308312,6.425834550295683,-0.09834972539290471,0.6786535402331374,6.2772853220372316
1744009217.0600455,6,0,28,0.35804193610867296,-0.0669499356788532,0.49810977968940406,6.4539553145731725,-0.06630746974814003,0.4820135819122496,6.304822824301446
1744009217.2479908,6,0,28,2.0543326691076715,-0.25844470302560274,0.4763667334171776,6.447506480832776,-0.25337324877523254,0.4607702556806127,6.298405742290007
1744009217.4448497,6,0,28,1.4647927011354773,-0.1876152745674977,0.6750574231732104,6.425291468230272,-0.18417319558261003,0.6548550965693349,6.276698002384522
1744009217.6624603,6,0,28,0.1802139078886115,-0.04515232578129921,0.5277472797076673,6.452911811611841,-0.04502348065184677,0.5109739306871365,6.303852634901489
1744009217.862422,6,0,28,0.9138216518135871,-0.12577743739099284,0.676489408279801,6.42709919645632,-0.12377265668588938,0.6562536374811172,6.278483940057431
1744009218.0587845,6,0,28,1.1744753334471376,-0.1583989968481046,0.5340625182635929,6.446333817771919,-0.15563900196423897,0.517133453217991,6.297317747548192
1744009218.2639298,6,0,28,0.7472444566660074,-0.11058718501851061,0.5198995744638633,6.453264968533778,-0.10893821157706274,0.5033036416153145,6.3041949987227
1744009218.4621909,6,0,28,1.2899654954103648,-0.16707750726305776,0.7167725373536968,6.4147301038430165,-0.16411261388290838,0.695588161762958,6.266263165981165
1744009218.6602528,6,0,28,0.9389401321313204,-0.1281262442949915,0.6748287822468237,6.43004413582718,-0.12606671821648868,0.6546382253466317,6.281423478567188
1744009218.8614278,6,0,28,1.202933448726064,-0.16046141911330422,0.5666561006874773,6.443730021902091,-0.15765514501102448,0.5489717583492422,6.294802560157365
1744009219.0587454,6,0,28,2.1341958717868947,-0.2660503273255199,0.5591527444937889,6.434352073153023,-0.26079443876098923,0.5416333999665688,6.285471422285512
1744009219.2647743,6,0,28,1.7445724116754031,-0.22274676653627906,0.5485116019576357,6.439839882708947,-0.2184972956963876,0.5312435926799399,6.290897753500431
